[{"city": "Bangkok", "latitude": -7.0964164, "longitude": 112.5124298}, {"city": "Paris", "latitude": 48.8534951, "longitude": 2.3483915}, {"city": "London", "latitude": 51.4893335, "longitude": -0.14405508452768728}, {"city": "Dubai", "latitude": 25.2653471, "longitude": 55.2924914}, {"city": "Singapore", "latitude": 1.357107, "longitude": 103.8194992}, {"city": "Kuala Lumpur", "latitude": 3.1516964, "longitude": 101.6942371}, {"city": "New York", "latitude": 40.7127281, "longitude": -74.0060152}, {"city": "Istanbul", "latitude": 41.006381, "longitude": 28.9758715}, {"city": "Tokyo", "latitude": 35.6821936, "longitude": 139.762221}, {"city": "Antalya", "latitude": 36.8864752, "longitude": 30.7029585}, {"city": "Seoul", "latitude": 37.5666791, "longitude": 126.9782914}, {"city": "Osaka", "latitude": 34.7021912, "longitude": 135.4955866}, {"city": "Makkah", "latitude": 21.420847, "longitude": 39.826869}, {"city": "Phuket", "latitude": 7.9366015, "longitude": 98.3529292}, {"city": "Pattaya", "latitude": 12.9366924, "longitude": 100.8865002}, {"city": "Milan", "latitude": 45.4641943, "longitude": 9.1896346}, {"city": "Barcelona", "latitude": 41.3828939, "longitude": 2.1774322}, {"city": "Palma de Mallorca", "latitude": 39.58130105, "longitude": 2.709183392285786}, {"city": "Bali", "latitude": -8.3304977, "longitude": 115.0906401}, {"city": "Hong Kong SAR", "latitude": 22.350627, "longitude": 114.1849161}]